[
    {
        "id": 13302,
        "obdb_id": "padre-island-brewing-co-south-padre-island",
        "name": "Padre Island Brewing Co",
        "brewery_type": "brewpub",
        "street": "3400 Padre Blvd",
        "address_2": null,
        "address_3": null,
        "city": "South Padre Island",
        "state": "Texas",
        "county_province": null,
        "postal_code": "78597",
        "country": "United States",
        "longitude": "-97.165899",
        "latitude": "26.079915",
        "phone": "9567619585",
        "website_url": "http://www.pibrewingcompany.com",
        "updated_at": "2018-07-24T00:00:00.000Z",
        "created_at": "2018-07-24T00:00:00.000Z"
    },
    {
        "id": 12121,
        "obdb_id": "lazy-beach-brewing-corpus-christi",
        "name": "Lazy Beach Brewing",
        "brewery_type": "micro",
        "street": "7522 Bichon Dr Ste 100",
        "address_2": null,
        "address_3": null,
        "city": "Corpus Christi",
        "state": "Texas",
        "county_province": null,
        "postal_code": "78414-3910",
        "country": "United States",
        "longitude": "-97.3721494",
        "latitude": "27.6545883",
        "phone": "3616935347",
        "website_url": "http://lazybeachbrewing.com",
        "updated_at": "2018-07-24T00:00:00.000Z",
        "created_at": "2018-07-24T00:00:00.000Z"
    },
    {
        "id": 8509,
        "obdb_id": "b-and-j-s-handcrafted-texas-ales-corpus-christi",
        "name": "B and J's Handcrafted Texas Ales",
        "brewery_type": "micro",
        "street": "6335 S Padre Island Dr",
        "address_2": null,
        "address_3": null,
        "city": "Corpus Christi",
        "state": "Texas",
        "county_province": null,
        "postal_code": "78412-4013",
        "country": "United States",
        "longitude": "-97.2962784",
        "latitude": "27.6749936",
        "phone": "3619926671",
        "website_url": "http://pizzaandbrew@aol.com",
        "updated_at": "2018-07-24T00:00:00.000Z",
        "created_at": "2018-07-24T00:00:00.000Z"
    },
    {
        "id": 13718,
        "obdb_id": "rebel-toad-brewing-co-corpus-christi",
        "name": "Rebel Toad Brewing Co",
        "brewery_type": "micro",
        "street": "425 William St",
        "address_2": null,
        "address_3": null,
        "city": "Corpus Christi",
        "state": "Texas",
        "county_province": null,
        "postal_code": "78401-2538",
        "country": "United States",
        "longitude": "-97.3960541",
        "latitude": "27.7946329",
        "phone": "5122211267",
        "website_url": "http://www.rebeltoadbrewing.com",
        "updated_at": "2018-07-24T00:00:00.000Z",
        "created_at": "2018-07-24T00:00:00.000Z"
    },
    {
        "id": 13665,
        "obdb_id": "railroad-seafood-station-brewing-co-corpus-christi",
        "name": "Railroad Seafood Station & Brewing Co.",
        "brewery_type": "brewpub",
        "street": "1214 N Chaparral St",
        "address_2": null,
        "address_3": null,
        "city": "Corpus Christi",
        "state": "Texas",
        "county_province": null,
        "postal_code": "78401-1503",
        "country": "United States",
        "longitude": "-97.39433962",
        "latitude": "27.8027685",
        "phone": "3618836200",
        "website_url": "http://www.railroadseafood.com",
        "updated_at": "2018-07-24T00:00:00.000Z",
        "created_at": "2018-07-24T00:00:00.000Z"
    }
]
